Latitude,Longitude,Altitude,Global_X,Global_Y,Global_Z,Relative_X,Relative_Y,Relative_Z,BBox_Min_X,BBox_Min_Y,BBox_Min_Z,BBox_Max_X,BBox_Max_Y,BBox_Max_Z,Timestamp,Image_Path,Latitudinal_Accuracy_Meters,Longitudinal_Accuracy_Meters,Altitudinal_Accuracy_Meters,Yaw,Pitch,Roll,R11,R12,R13,R21,R22,R23,R31,R32,R33
28.70144657900000,-81.34764827799999,-3.11400000000,842276.61946650757454,-5535084.09899064060301,3044917.16928046988323,0.57322819124751,0.00000088942697,0.74164030520594,-3744191.73980972776189,-5535094.52834870573133,-2479051.00529721193016,4256929.67973302584141,6190835.12564901821315,4969260.71104589104652,1737055000.425756,Image_000001.jpg,0.036300,0.036300,0.023700,7.49250000000000,2.07630000000000,74.89970000000000,0.99081100994859,0.00071118451905,0.13525175333889,0.13031080155671,0.26284649926943,-0.95599728703561,-0.03623034035598,0.96483740186540,0.26033853037786
28.70144880900000,-81.34765237800001,-3.13540000000,842276.20270419272128,-5535084.02336244191974,3044917.37578924326226,0.57322813915953,0.00000089587662,0.74164033293152,-3744191.73980972776189,-5535094.52834870573133,-2479051.00529721193016,4256929.67973302584141,6190835.12564901821315,4969260.71104589104652,1737055001.592494,Image_000002.jpg,0.031000,0.031000,0.021100,-3.24010000000000,1.30420000000000,70.04080000000000,0.99814280914654,0.04065257239546,-0.04536850126125,-0.05650563508008,0.33959607302694,-0.93887252616576,-0.02276061847262,0.93969243667400,0.34126247772708
28.70144754900000,-81.34765463200000,-3.09890000000,842275.99986101198010,-5535084.15444992017001,3044917.27082924265414,0.57322811380768,0.00000088469734,0.74164031883974,-3744191.73980972776189,-5535094.52834870573133,-2479051.00529721193016,4256929.67973302584141,6190835.12564901821315,4969260.71104589104652,1737055002.459214,Image_000003.jpg,0.028600,0.028600,0.019800,-2.60670000000000,1.88820000000000,72.53390000000000,0.99842284320389,0.04504805579189,-0.03350371379457,-0.04545511001313,0.29840145606760,-0.95335743768559,-0.03294934206250,0.95337675852000,0.29997849451509
28.70144658200000,-81.34765675500000,-2.90670000000,842275.82787237328012,-5535084.40320940595120,3044917.26912703178823,0.57322809231212,0.00000086348286,0.74164031861120,-3744191.73980972776189,-5535094.52834870573133,-2479051.00529721193016,4256929.67973302584141,6190835.12564901821315,4969260.71104589104652,1737055003.792629,Image_000004.jpg,0.026200,0.026200,0.018600,-11.44430000000000,-2.40390000000000,87.36279999999999,0.97925553071588,-0.03193680545438,-0.20009659172444,-0.19824059826392,0.05341021948752,-0.97869710005408,0.04194366176590,0.99806181617757,0.04597108140999
28.70144578400000,-81.34765591700000,-2.83810000000,842275.92426961997990,-5535084.49236797448248,3044917.22449553199112,0.57322810436008,0.00000085587932,0.74164031261904,-3744191.73980972776189,-5535094.52834870573133,-2479051.00529721193016,4256929.67973302584141,6190835.12564901821315,4969260.71104589104652,1737055004.259324,Image_000005.jpg,0.024600,0.024600,0.018000,-9.33280000000000,-2.42530000000000,95.93920000000000,0.98587914053776,-0.05831264047692,-0.15697756595491,-0.16202347391740,-0.09527775797440,-0.98217643157180,0.04231683060268,0.99374130677756,-0.10338037072753
28.70144562100000,-81.34765509099999,-2.77590000000,842276.01357849140186,-5535084.54273930843920,3044917.23852101480588,0.57322811552213,0.00000085158360,0.74164031450208,-3744191.73980972776189,-5535094.52834870573133,-2479051.00529721193016,4256929.67973302584141,6190835.12564901821315,4969260.71104589104652,1737055004.859360,Image_000006.jpg,0.023900,0.023900,0.017800,-10.20410000000000,-2.25020000000000,107.11290000000000,0.98342402927590,-0.08906034040546,-0.15794123720431,-0.17701856293415,-0.28295350707367,-0.94265674622921,0.03926330372616,0.95498982643878,-0.29402861149713
28.70144590900000,-81.34765454399999,-2.72600000000,842276.07070013100747,-5535084.56281437445432,3044917.29048275155947,0.57322812266133,0.00000084987158,0.74164032147839,-3744191.73980972776189,-5535094.52834870573133,-2479051.00529721193016,4256929.67973302584141,6190835.12564901821315,4969260.71104589104652,1737055005.459397,Image_000007.jpg,0.024200,0.024200,0.017600,-8.66250000000000,-1.15310000000000,118.81460000000000,0.98839247628334,-0.09002360638413,-0.12237672621899,-0.15058331952696,-0.47382321333409,-0.86764982935859,0.02012403306305,0.87600645705346,-0.48187935263293
28.70144605500000,-81.34765285600000,-2.69450000000,842276.23675764957443,-5535084.55763266328722,3044917.31980365701020,0.57322814341561,0.00000085031348,0.74164032541497,-3744191.73980972776189,-5535094.52834870573133,-2479051.00529721193016,4256929.67973302584141,6190835.12564901821315,4969260.71104589104652,1737055006.426122,Image_000008.jpg,0.024600,0.024600,0.017500,-9.29810000000000,-0.81510000000000,132.01499999999999,0.98676121400855,-0.11857398930743,-0.11064590181334,-0.16155474620007,-0.65882323813248,-0.73474621800786,0.01422569887899,0.74289444065517,-0.66925740902515
28.70144583500000,-81.34765207900000,-2.67420000000,842276.31626036309171,-5535084.57539001666009,3044917.30816567828879,0.57322815335206,0.00000084879911,0.74164032385248,-3744191.73980972776189,-5535094.52834870573133,-2479051.00529721193016,4256929.67973302584141,6190835.12564901821315,4969260.71104589104652,1737055007.326176,Image_000009.jpg,0.024900,0.024900,0.017500,-7.94660000000000,-0.75910000000000,140.31350000000000,0.99031042754721,-0.11476938686626,-0.07818724275489,-0.13823797166327,-0.76099068818555,-0.63386389365960,0.01324840676059,0.63853046938516,-0.76948250102590
28.70144470500000,-81.34765194800001,-2.65860000000,842276.34002236346714,-5535084.64645271655172,3044917.20580628234893,0.57322815632189,0.00000084273881,0.74164031010985,-3744191.73980972776189,-5535094.52834870573133,-2479051.00529721193016,4256929.67973302584141,6190835.12564901821315,4969260.71104589104652,1737055008.592919,Image_000010.jpg,0.026100,0.026100,0.017600,-20.13000000000000,3.25500000000000,142.19080000000000,0.93739945151934,-0.23921730885899,-0.25309553025193,-0.34359614334140,-0.75377456072990,-0.56014783930439,-0.05677991345678,0.61204492542518,-0.78878200454189
28.70144062400000,-81.34765255300000,-2.46530000000,842276.33976052037906,-5535085.03771022520959,3044916.90190954133868,0.57322815628917,0.00000080937194,0.74164026930909,-3744191.73980972776189,-5535094.52834870573133,-2479051.00529721193016,4256929.67973302584141,6190835.12564901821315,4969260.71104589104652,1737055010.226350,Image_000011.jpg,0.024900,0.024900,0.017300,-4.41190000000000,1.44450000000000,142.81710000000001,0.99671995078243,-0.04609785961003,-0.06651561509637,-0.07690166236868,-0.79552148894850,-0.60102553601831,-0.02520861037837,0.60416930405354,-0.79645714134676
28.70144044800000,-81.34765290900000,-2.43530000000,842276.31073689914774,-5535085.07821931876242,3044916.89920733589679,0.57322815266172,0.00000080591728,0.74164026894630,-3744191.73980972776189,-5535094.52834870573133,-2479051.00529721193016,4256929.67973302584141,6190835.12564901821315,4969260.71104589104652,1737055010.659710,Image_000012.jpg,0.024400,0.024400,0.017200,0.77060000000000,-0.74870000000000,135.12840000000000,0.99982418877297,0.00031310272060,0.01874816020709,0.01344795351466,-0.70874952319695,-0.70533202530040,0.01306690823155,0.70546014439852,-0.70862912766446
28.70144062100000,-81.34765407400000,-2.47400000000,842276.19169963267632,-5535085.05268331617117,3044916.89743976527825,0.57322813778415,0.00000080809502,0.74164026870898,-3744191.73980972776189,-5535094.52834870573133,-2479051.00529721193016,4256929.67973302584141,6190835.12564901821315,4969260.71104589104652,1737055011.426423,Image_000013.jpg,0.024500,0.024500,0.017200,-0.01150000000000,-0.75170000000000,122.82470000000001,0.99991391861666,-0.01113335042147,0.00694290033539,-0.00020069558903,-0.54206830142094,-0.84033440743308,0.01311926362091,0.84026067687534,-0.54202387384601
28.70144023300000,-81.34765478800000,-2.61130000000,842276.10771274869330,-5535084.96453619375825,3044916.79378321999684,0.57322812728726,0.00000081561230,0.74164025479220,-3744191.73980972776189,-5535094.52834870573133,-2479051.00529721193016,4256929.67973302584141,6190835.12564901821315,4969260.71104589104652,1737055012.026459,Image_000014.jpg,0.024900,0.024900,0.017200,-3.86630000000000,-2.42330000000000,111.68950000000000,0.99683186476270,-0.06411896479141,-0.04706369883248,-0.06736816498265,-0.36608620674554,-0.92813922424253,0.04228195525973,0.92836934868873,-0.36924597313264
28.70143981800000,-81.34765554400001,-2.74040000000,842276.02096666290890,-5535084.88553788140416,3044916.69143992662430,0.57322811644552,0.00000082234937,0.74164024105173,-3744191.73980972776189,-5535094.52834870573133,-2479051.00529721193016,4256929.67973302584141,6190835.12564901821315,4969260.71104589104652,1737055012.459819,Image_000015.jpg,0.025100,0.025100,0.017200,-4.03650000000000,-4.05130000000000,99.82520000000000,0.99502680201713,-0.08145260022887,-0.05733356070857,-0.07021605705704,-0.16531936972441,-0.98373736908043,0.07064961853351,0.98287078495084,-0.17021648419348
28.70143945800000,-81.34765621100000,-2.87490000000,842275.94166550994851,-5535084.79765448905528,3044916.59185004932806,0.57322810653426,0.00000082984416,0.74164022768093,-3744191.73980972776189,-5535094.52834870573133,-2479051.00529721193016,4256929.67973302584141,6190835.12564901821315,4969260.71104589104652,1737055012.959848,Image_000016.jpg,0.025400,0.025400,0.017300,-4.46920000000000,-3.48820000000000,86.57580000000000,0.99511234963263,-0.05589548374905,-0.08140704210992,-0.07777881576071,0.06427899724472,-0.99489630933684,0.06084297352601,0.99636534735491,0.05961733944785
28.70143855800000,-81.34765680800000,-3.06690000000,842275.86586325103417,-5535084.68729577027261,3044916.41215077927336,0.57322809706031,0.00000083925567,0.74164020355476,-3744191.73980972776189,-5535094.52834870573133,-2479051.00529721193016,4256929.67973302584141,6190835.12564901821315,4969260.71104589104652,1737055013.959908,Image_000017.jpg,0.025000,0.025000,0.017400,-4.17870000000000,-1.91160000000000,66.51850000000000,0.99678659733044,-0.00147957011847,-0.08008926429095,-0.07282688332928,0.39962309891202,-0.91378204396918,0.03335752459258,0.91667834581614,0.39823119649876
28.70143803700000,-81.34765706500001,-3.10300000000,842275.84044385468587,-5535084.68718476686627,3044916.34416569443420,0.57322809388333,0.00000083926514,0.74164019442718,-3744191.73980972776189,-5535094.52834870573133,-2479051.00529721193016,4256929.67973302584141,6190835.12564901821315,4969260.71104589104652,1737055014.293261,Image_000018.jpg,0.025000,0.025000,0.017500,-6.58930000000000,-2.60670000000000,63.60630000000000,0.99236630644662,0.01054140642196,-0.12287388892739,-0.11463289759977,0.44627504216718,-0.88752345632471,0.04547980450018,0.89483376416479,0.44407670721768
28.70143650000000,-81.34765811500000,-3.11660000000,842275.74952067399863,-5535084.77170433290303,3044916.18821724271402,0.57322808251953,0.00000083205722,0.74164017348975,-3744191.73980972776189,-5535094.52834870573133,-2479051.00529721193016,4256929.67973302584141,6190835.12564901821315,4969260.71104589104652,1737055014.859962,Image_000019.jpg,0.026300,0.026300,0.017700,-15.00880000000000,-2.80120000000000,61.65030000000000,0.96473193942492,0.08142892984707,-0.25032302019069,-0.25865796109209,0.46979075599636,-0.84403359218935,0.04887068873172,0.87901420634955,0.47428438812442
28.70143484800000,-81.34765886000000,-3.11960000000,842275.69038170867134,-5535084.86698338296264,3044916.02617984125391,0.57322807512819,0.00000082393171,0.74164015173484,-3744191.73980972776189,-5535094.52834870573133,-2479051.00529721193016,4256929.67973302584141,6190835.12564901821315,4969260.71104589104652,1737055015.493333,Image_000020.jpg,0.027200,0.027200,0.018000,-18.89950000000000,-2.19560000000000,61.84790000000000,0.94539362568252,0.12086709274386,-0.30269132529776,-0.32367136782654,0.45731874346412,-0.82830937005788,0.03831107109127,0.88105091383418,0.47146744220974
28.70143303700000,-81.34765729800000,-3.06710000000,842275.86270816938486,-5535084.98484195210040,3044915.87533911596984,0.57322809666598,0.00000081388061,0.74164013148317,-3744191.73980972776189,-5535094.52834870573133,-2479051.00529721193016,4256929.67973302584141,6190835.12564901821315,4969260.71104589104652,1737055016.126706,Image_000021.jpg,0.028000,0.028000,0.018300,-11.30600000000000,-0.97760000000000,66.76570000000000,0.98045140024921,0.06196614172926,-0.18674916071714,-0.19602029638535,0.38991023352018,-0.89974777199015,0.01706151090519,0.91876558875234,0.39443465589398
28.70142973300000,-81.34765635799999,-3.03090000000,842275.98474998900201,-5535085.17627165652812,3044915.57153065269813,0.57322811191907,0.00000079755527,0.74164009069427,-3744191.73980972776189,-5535094.52834870573133,-2479051.00529721193016,4256929.67973302584141,6190835.12564901821315,4969260.71104589104652,1737055016.960088,Image_000022.jpg,0.026500,0.026500,0.018400,-12.30550000000000,-1.13790000000000,69.84850000000000,0.97683244591851,0.05520724184045,-0.20676202032587,-0.21308214571121,0.34056202913029,-0.91575843075222,0.01985879603529,0.93859984272480,0.34443571745248
28.70142911300000,-81.34765635500000,-3.02380000000,842275.99094117397908,-5535085.21500887908041,3044915.51466803392395,0.57322811269286,0.00000079425172,0.74164008305997,-3744191.73980972776189,-5535094.52834870573133,-2479051.00529721193016,4256929.67973302584141,6190835.12564901821315,4969260.71104589104652,1737055017.093429,Image_000023.jpg,0.026300,0.026300,0.018400,-12.72010000000000,-1.92620000000000,69.64890000000000,0.97490617759515,0.04583470473916,-0.21784656235131,-0.22006400185771,0.34617577868739,-0.91199460817296,0.03361219976702,0.93704936374326,0.34757547372501
28.70142681900000,-81.34765585000000,-3.01090000000,842276.05979775963351,-5535085.33948220126331,3044915.29785546101630,0.57322812129873,0.00000078363650,0.74164005395101,-3744191.73980972776189,-5535094.52834870573133,-2479051.00529721193016,4256929.67973302584141,6190835.12564901821315,4969260.71104589104652,1737055017.593460,Image_000024.jpg,0.027600,0.027600,0.018700,-13.55120000000000,0.03450000000000,68.47020000000001,0.97216074717111,0.08653434680290,-0.21775051890434,-0.23431414615613,0.35663732336019,-0.90438194392502,-0.00060213855555,0.93022665324633,0.36698502833125
28.70142412300000,-81.34765450200000,-2.98150000000,842276.21548892022111,-5535085.48702433891594,3044915.04988710721955,0.57322814075739,0.00000077105395,0.74164002065913,-3744191.73980972776189,-5535094.52834870573133,-2479051.00529721193016,4256929.67973302584141,6190835.12564901821315,4969260.71104589104652,1737055018.293501,Image_000025.jpg,0.027400,0.027400,0.018900,-12.64390000000000,-1.17220000000000,68.35240000000000,0.97554513633360,0.06219481454684,-0.21081625179132,-0.21884511632531,0.36411296355750,-0.90527816986269,0.02045732231791,0.92927582278507,0.36881966209886
28.70142264200000,-81.34765496000000,-2.96940000000,842276.18469899357297,-5535085.58218025509268,3044914.91172489523888,0.57322813690919,0.00000076293895,0.74164000210966,-3744191.73980972776189,-5535094.52834870573133,-2479051.00529721193016,4256929.67973302584141,6190835.12564901821315,4969260.71104589104652,1737055018.760196,Image_000026.jpg,0.027400,0.027400,0.019000,-9.04750000000000,-2.42660000000000,72.04810000000001,0.98667275014218,0.00869125444189,-0.16248491075511,-0.15711222391940,0.31071759386562,-0.93742750437432,0.04233949954795,0.95046253948201,0.30794208517096
28.70142047100000,-81.34765601700001,-2.98150000000,842276.09837407618761,-5535085.70146463997662,3044914.69486343394965,0.57322812612009,0.00000075276625,0.74163997299414,-3744191.73980972776189,-5535094.52834870573133,-2479051.00529721193016,4256929.67973302584141,6190835.12564901821315,4969260.71104589104652,1737055019.526908,Image_000027.jpg,0.028300,0.028300,0.019200,-5.26670000000000,-3.10630000000000,68.66679999999999,0.99431513630652,-0.01686948187403,-0.10513244167736,-0.09165699389059,0.36688844246576,-0.92573855178230,0.05418860749901,0.93011197786414,0.36325652568257
28.70141920500000,-81.34765910100000,-2.98100000000,842275.81064594362397,-5535085.81385171972215,3044914.57203127350658,0.57322809015911,0.00000074318176,0.74163995650287,-3744191.73980972776189,-5535094.52834870573133,-2479051.00529721193016,4256929.67973302584141,6190835.12564901821315,4969260.71104589104652,1737055020.093608,Image_000028.jpg,0.028900,0.028900,0.019400,-4.63570000000000,-2.22010000000000,70.74120000000001,0.99598055793459,-0.00979355366931,-0.08903265986609,-0.08075931979313,0.33171228350098,-0.93991749278387,0.03873835932065,0.94332976592552,0.32958806446237
28.70141809200000,-81.34766151500000,-2.96610000000,842275.58831851172727,-5535085.92082555405796,3044914.47098830714822,0.57322806237208,0.00000073405891,0.74163994293698,-3744191.73980972776189,-5535094.52834870573133,-2479051.00529721193016,4256929.67973302584141,6190835.12564901821315,4969260.71104589104652,1737055020.426961,Image_000029.jpg,0.028700,0.028700,0.019500,-6.89420000000000,0.17090000000000,70.88679999999999,0.99276508190279,0.04210212667163,-0.11244955795495,-0.12003580831494,0.32472976475915,-0.93815882695930,-0.00298276326876,0.94486929826786,0.32743413431420
28.70141658700000,-81.34766380500000,-2.96740000000,842275.37897131848149,-5535086.03255578130484,3044914.32405767496675,0.57322803620735,0.00000072453044,0.74163992321027,-3744191.73980972776189,-5535094.52834870573133,-2479051.00529721193016,4256929.67973302584141,6190835.12564901821315,4969260.71104589104652,1737055020.860321,Image_000030.jpg,0.028500,0.028500,0.019700,1.74530000000000,4.06480000000000,71.29930000000000,0.99702177908369,0.05734613219677,0.05156542596408,0.03037990810985,0.32252074636470,-0.94607474828768,-0.07088464725188,0.94482368158637,0.31981803810534
28.70141564400000,-81.34766623100001,-2.95900000000,842275.15326566819567,-5535086.12512407731265,3044914.23641940578818,0.57322800799810,0.00000071663611,0.74163991144408,-3744191.73980972776189,-5535094.52834870573133,-2479051.00529721193016,4256929.67973302584141,6190835.12564901821315,4969260.71104589104652,1737055021.360350,Image_000031.jpg,0.027700,0.027700,0.020000,9.91250000000000,3.09960000000000,72.37940000000000,0.98363068069517,-0.00134458851717,0.18019122086514,0.17189217524539,0.30706504683331,-0.93603639731725,-0.05407184188242,0.95168757956326,0.30226972527937
28.70141571100000,-81.34766821900000,-2.96040000000,842274.96049275866244,-5535086.14960904791951,3044914.24226036714390,0.57322798390486,0.00000071454801,0.74163991222828,-3744191.73980972776189,-5535094.52834870573133,-2479051.00529721193016,4256929.67973302584141,6190835.12564901821315,4969260.71104589104652,1737055021.760374,Image_000032.jpg,0.027000,0.027000,0.020300,22.25240000000000,0.86340000000000,73.11539999999999,0.92541956034496,-0.09664270294737,0.36641346222261,0.37864439062414,0.27427431522317,-0.88396947088558,-0.01506860245032,0.95678304122507,0.29041203357352
28.70141555200000,-81.34766908500001,-2.95760000000,842274.87847503647208,-5535086.17313429620117,3044914.22814810741693,0.57322797365408,0.00000071254175,0.74163991033359,-3744191.73980972776189,-5535094.52834870573133,-2479051.00529721193016,4256929.67973302584141,6190835.12564901821315,4969260.71104589104652,1737055022.127062,Image_000033.jpg,0.027500,0.027500,0.020500,34.48770000000000,0.62270000000000,73.62269999999999,0.82419908480795,-0.15106036194134,0.54578075786151,0.56619586384594,0.23831009252984,-0.78906941618730,-0.01086795130089,0.95936909833941,0.28194471228585
28.70141453600000,-81.34766660500000,-2.98930000000,842275.12200900120661,-5535086.16265054512769,3044914.11415542103350,0.57322800409156,0.00000071343581,0.74163989502909,-3744191.73980972776189,-5535094.52834870573133,-2479051.00529721193016,4256929.67973302584141,6190835.12564901821315,4969260.71104589104652,1737055023.593816,Image_000034.jpg,0.029400,0.029400,0.021500,28.92420000000000,1.81510000000000,66.24260000000000,0.87482116104852,-0.16947258818923,0.45383584921662,0.48340943615962,0.36663278220245,-0.79491868769474,-0.03167417265789,0.91480022128710,0.40266276450586
28.70141484200000,-81.34766456800000,-2.98410000000,842275.31703031249344,-5535086.12111308053136,3044914.14640002558008,0.57322802846581,0.00000071697817,0.74163989935820,-3744191.73980972776189,-5535094.52834870573133,-2479051.00529721193016,4256929.67973302584141,6190835.12564901821315,4969260.71104589104652,1737055024.160516,Image_000035.jpg,0.031600,0.031600,0.022400,24.58470000000000,1.81150000000000,64.95269999999999,0.90889277903000,-0.15009403818447,0.38908314783425,0.41583005828155,0.39690172916631,-0.81826302618068,-0.03161137226838,0.90550582388313,0.42315472826974
28.70141197600000,-81.34766737000000,-3.20500000000,842275.04014168819413,-5535086.12155945505947,3044913.76169998897240,0.57322799385958,0.00000071694011,0.74163984770891,-3744191.73980972776189,-5535094.52834870573133,-2479051.00529721193016,4256929.67973302584141,6190835.12564901821315,4969260.71104589104652,1737055025.527264,Image_000036.jpg,0.046300,0.046300,0.025800,32.51410000000000,11.30300000000000,58.57770000000000,0.82690367527892,-0.13918642219009,0.54484626426924,0.52708186857420,0.52952651775063,-0.66467012180420,-0.19599748883735,0.83679675362468,0.51123006317375
28.70141126400000,-81.34766998300000,-3.30890000000,842274.77970263164025,-5535086.10734027717263,3044913.64258651295677,0.57322796130926,0.00000071815273,0.74163983171690,-3744191.73980972776189,-5535094.52834870573133,-2479051.00529721193016,4256929.67973302584141,6190835.12564901821315,4969260.71104589104652,1737055026.360646,Image_000037.jpg,0.048300,0.048300,0.027200,44.79300000000000,25.89820000000000,60.64090000000000,0.63838704948888,-0.07527738551046,0.76602564596467,0.63379086498286,0.61613615954518,-0.46763807839525,-0.43677352771106,0.78403414985039,0.44104346425178
28.70141105100000,-81.34767112300000,-3.38530000000,842274.66119659366086,-5535086.06905649788678,3044913.58518931129947,0.57322794649808,0.00000072141762,0.74163982401083,-3744191.73980972776189,-5535094.52834870573133,-2479051.00529721193016,4256929.67973302584141,6190835.12564901821315,4969260.71104589104652,1737055027.127358,Image_000038.jpg,0.047600,0.047600,0.027800,31.09010000000000,24.86230000000000,48.24130000000000,0.77698995051759,-0.07533184480476,0.62498938387223,0.46852721430433,0.73228241977111,-0.49421119690916,-0.42043889716687,0.67682166842712,0.60427110049764
28.70141116700000,-81.34766920000000,-3.30370000000,842274.85680758440867,-5535086.10544316004962,3044913.63565407739952,0.57322797094603,0.00000071831452,0.74163983078616,-3744191.73980972776189,-5535094.52834870573133,-2479051.00529721193016,4256929.67973302584141,6190835.12564901821315,4969260.71104589104652,1737055027.827399,Image_000039.jpg,0.042000,0.042000,0.027800,8.51600000000000,3.76000000000000,44.40220000000000,0.98684577402722,-0.06042119722646,0.14994898202500,0.14776683542900,0.71336345941489,-0.68503834718862,-0.06557728746992,0.69818468451932,0.71290796437601
28.70141152500000,-81.34766693800000,-3.26300000000,842275.07783314154949,-5535086.08864574600011,3044913.69000248517841,0.57322799857035,0.00000071974702,0.74163983808290,-3744191.73980972776189,-5535094.52834870573133,-2479051.00529721193016,4256929.67973302584141,6190835.12564901821315,4969260.71104589104652,1737055028.160752,Image_000040.jpg,0.052400,0.052400,0.029900,7.95970000000000,3.18660000000000,42.83950000000000,0.98883440233127,-0.06410674531545,0.13452453297160,0.13826243049972,0.73143081327458,-0.66775179947702,-0.05558799401379,0.67889564043198,0.73212750550978
28.70141194600000,-81.34766253300000,-3.16290000000,842275.51321788912173,-5535086.08853895403445,3044913.77900190372020,0.57322805298582,0.00000071975613,0.74163985003184,-3744191.73980972776189,-5535094.52834870573133,-2479051.00529721193016,4256929.67973302584141,6190835.12564901821315,4969260.71104589104652,1737055028.760787,Image_000041.jpg,0.065700,0.065700,0.032300,3.94930000000000,0.62860000000000,44.65580000000000,0.99756534650124,-0.04130020364317,0.05619317252918,0.06886957516397,0.71018379974909,-0.70063967357742,-0.01097091958750,0.70280385866397,0.71129907575536
28.70141183900000,-81.34765848900000,-3.07020000000,842275.91697942093015,-5535086.11510554701090,3044913.81311878096312,0.57322810344894,0.00000071749050,0.74163985461233,-3744191.73980972776189,-5535094.52834870573133,-2479051.00529721193016,4256929.67973302584141,6190835.12564901821315,4969260.71104589104652,1737055029.727511,Image_000042.jpg,0.074800,0.074800,0.034300,-14.33320000000000,-1.86660000000000,59.75800000000000,0.96835833603334,0.09742095895988,-0.22976355191822,-0.24742910460507,0.49494211770479,-0.83295326298433,0.03257255330908,0.86344742565905,0.50338610617864
28.70141110000000,-81.34765552400000,-3.03920000000,842276.21342260704841,-5535086.13728663418442,3044913.75616560131311,0.57322814049914,0.00000071559888,0.74163984696587,-3744191.73980972776189,-5535094.52834870573133,-2479051.00529721193016,4256929.67973302584141,6190835.12564901821315,4969260.71104589104652,1737055030.627563,Image_000043.jpg,0.080200,0.080200,0.035600,-9.70280000000000,-1.68000000000000,64.21810000000001,0.98527153749917,0.04728350386137,-0.16432975280397,-0.16846510484803,0.43317407066312,-0.88542630012536,0.02931733007223,0.90006916110249,0.43475970304262
28.70141144000000,-81.34765461700000,-3.03620000000,842276.29871717886999,-5535086.10866387374699,3044913.79065892798826,0.57322815115947,0.00000071803986,0.74163985159690,-3744191.73980972776189,-5535094.52834870573133,-2479051.00529721193016,4256929.67973302584141,6190835.12564901821315,4969260.71104589104652,1737055030.860911,Image_000044.jpg,0.081800,0.081800,0.036100,-11.49320000000000,-1.34430000000000,66.02110000000000,0.97967864709865,0.05997014888545,-0.19139835334091,-0.19919679299893,0.40252227105836,-0.89347437510035,0.02346030856351,0.91344370518641,0.40628833527118
28.70141223600000,-81.34765230100000,-3.05610000000,842276.51345579815097,-5535086.01547551620752,3044913.85848399670795,0.57322817799803,0.00000072598706,0.74163986070300,-3744191.73980972776189,-5535094.52834870573133,-2479051.00529721193016,4256929.67973302584141,6190835.12564901821315,4969260.71104589104652,1737055031.427611,Image_000045.jpg,0.085400,0.085400,0.037100,-10.68660000000000,-2.37620000000000,64.28160000000000,0.98181124411741,0.04376441958451,-0.18474673610934,-0.18527735265088,0.43334881917705,-0.88197568192810,0.04146062613256,0.90016302773236,0.43357529909395
28.70141204200000,-81.34764948000000,-3.06340000000,842276.78656997554936,-5535085.97788351401687,3044913.83611878799275,0.57322821213252,0.00000072919295,0.74163985770028,-3744191.73980972776189,-5535094.52834870573133,-2479051.00529721193016,4256929.67973302584141,6190835.12564901821315,4969260.71104589104652,1737055032.060981,Image_000046.jpg,0.089000,0.089000,0.038200,-5.94020000000000,-2.18060000000000,64.01880000000000,0.99391019607600,0.01131624864405,-0.10961051342271,-0.10341547530583,0.43926373414865,-0.89238590941871,0.03804946259059,0.89828687754993,0.43775897936897
28.70141270100000,-81.34764674100001,-3.05070000000,842277.04757142427843,-5535085.91395494528115,3044913.90628159884363,0.57322824475313,0.00000073464484,0.74163986712024,-3744191.73980972776189,-5535094.52834870573133,-2479051.00529721193016,4256929.67973302584141,6190835.12564901821315,4969260.71104589104652,1737055032.861028,Image_000047.jpg,0.092200,0.092200,0.039300,-6.79080000000000,0.02810000000000,66.02979999999999,0.99298438804464,0.04848318879733,-0.10784890126313,-0.11824451179940,0.40335833135884,-0.90736998625298,-0.00049043750015,0.91375677120744,0.40626139681688
28.70141338300000,-81.34764434500001,-3.05610000000,842277.27286463754717,-5535085.83816292416304,3044913.96998788090423,0.57322827291083,0.00000074110847,0.74163987567335,-3744191.73980972776189,-5535094.52834870573133,-2479051.00529721193016,4256929.67973302584141,6190835.12564901821315,4969260.71104589104652,1737055033.727745,Image_000048.jpg,0.094700,0.094700,0.040100,8.81530000000000,-1.51960000000000,63.42250000000000,0.98783995965791,-0.09200164695732,0.12533120545256,0.15319582663739,0.43848833920592,-0.88558399662670,0.02651891407913,0.89401547712418,0.44725057166927
28.70141361000000,-81.34764343300000,-3.05890000000,842277.35878170945216,-5535085.81038324348629,3044913.99071065895259,0.57322828364896,0.00000074347755,0.74163987845557,-3744191.73980972776189,-5535094.52834870573133,-2479051.00529721193016,4256929.67973302584141,6190835.12564901821315,4969260.71104589104652,1737055034.061098,Image_000049.jpg,0.095600,0.095600,0.040500,20.13960000000000,-1.60430000000000,62.83140000000000,0.93848849124241,-0.18059968090172,0.29431803727216,0.34417370456793,0.42011573651163,-0.83967090518803,0.02799665854216,0.88931801015919,0.45643144492572
28.70141405300000,-81.34764243600000,-3.05180000000,842277.45248703320976,-5535085.77857285924256,3044914.03718597954139,0.57322829536049,0.00000074619038,0.74163988469528,-3744191.73980972776189,-5535094.52834870573133,-2479051.00529721193016,4256929.67973302584141,6190835.12564901821315,4969260.71104589104652,1737055034.527792,Image_000050.jpg,0.096600,0.096600,0.040800,30.80900000000000,-2.47580000000000,63.79210000000000,0.85807773893337,-0.25948010954930,0.44313955668082,0.51169969436603,0.35945628264544,-0.78035543417883,0.04319741581048,0.89636000223961,0.44121732700824
28.70141514100000,-81.34764115999999,-3.04910000000,842277.56740000529680,-5535085.70490552484989,3044914.14425092656165,0.57322830972259,0.00000075247281,0.74163989906967,-3744191.73980972776189,-5535094.52834870573133,-2479051.00529721193016,4256929.67973302584141,6190835.12564901821315,4969260.71104589104652,1737055035.094491,Image_000051.jpg,0.098200,0.098200,0.041400,42.73760000000000,-1.31800000000000,63.50730000000000,0.73427508216144,-0.31785093850259,0.59984238313897,0.67846226042105,0.31366432948276,-0.66430689413440,0.02300141085173,0.89475441843176,0.44596576751548
28.70141672200000,-81.34763965200000,-3.07410000000,842277.69712270889431,-5535085.57786579430103,3044914.28593933535740,0.57322832593566,0.00000076330689,0.74163991809256,-3744191.73980972776189,-5535094.52834870573133,-2479051.00529721193016,4256929.67973302584141,6190835.12564901821315,4969260.71104589104652,1737055035.694527,Image_000052.jpg,0.100200,0.100200,0.042200,54.49250000000000,-2.37930000000000,63.55490000000000,0.58030879875664,-0.38411349455325,0.71812152271584,0.81333770909460,0.22839938875755,-0.53508456357843,0.04151468475568,0.89458959446065,0.44495616461891
28.70141714600000,-81.34763895899999,-3.07090000000,842277.76109747926239,-5535085.54814225062728,3044914.32869464205578,0.57322833393138,0.00000076584175,0.74163992383283,-3744191.73980972776189,-5535094.52834870573133,-2479051.00529721193016,4256929.67973302584141,6190835.12564901821315,4969260.71104589104652,1737055036.394567,Image_000053.jpg,0.100800,0.100800,0.042400,65.65920000000000,-2.66840000000000,64.86570000000000,0.41171635209642,-0.40435781110361,0.81669113256844,0.91012209503788,0.13666190177945,-0.39115380188089,0.04655553179020,0.90433306099110,0.42428091785774
28.70141735600000,-81.34763943800000,-3.06280000000,842277.71421077277046,-5535085.55115748569369,3044914.35299946228042,0.57322832807137,0.00000076558460,0.74163992709596,-3744191.73980972776189,-5535094.52834870573133,-2479051.00529721193016,4256929.67973302584141,6190835.12564901821315,4969260.71104589104652,1737055037.227948,Image_000054.jpg,0.101400,0.101400,0.042600,77.60299999999999,-2.58070000000000,65.92659999999999,0.21446645434791,-0.40722139920617,0.88779213332176,0.97569296180611,0.04741940463886,-0.21395009779318,0.04502648377845,0.91209765490997,0.40749292468248
28.70141756800000,-81.34763914299999,-3.07190000000,842277.73981105722487,-5535085.52777426503599,3044914.36923849210143,0.57322833127095,0.00000076757875,0.74163992927619,-3744191.73980972776189,-5535094.52834870573133,-2479051.00529721193016,4256929.67973302584141,6190835.12564901821315,4969260.71104589104652,1737055037.961324,Image_000055.jpg,0.101700,0.101700,0.042700,89.29400000000000,-2.09580000000000,65.36350000000000,0.01231347043357,-0.41723787810566,0.90871388870192,0.99925521281568,-0.02810252060097,-0.02644367592741,0.03657045401089,0.90836270366509,0.41658108512470
28.70141881300000,-81.34763676700000,-3.08600000000,842277.95751604391262,-5535085.41510681807995,3044914.48349783476442,0.57322835848026,0.00000077718715,0.74163994461649,-3744191.73980972776189,-5535094.52834870573133,-2479051.00529721193016,4256929.67973302584141,6190835.12564901821315,4969260.71104589104652,1737055038.628030,Image_000056.jpg,0.103500,0.103500,0.043500,101.66249999999999,-0.56720000000000,65.27209999999999,-0.20213644702206,-0.40785593393452,0.89039002349515,0.97930733671178,-0.09336571536521,0.17955495943255,0.00989934582574,0.90826008408866,0.41828892240111
28.70141937900000,-81.34763443300000,-3.08640000000,842278.17840830853675,-5535085.35066589061171,3044914.53832857403904,0.57322838608793,0.00000078268275,0.74163995197799,-3744191.73980972776189,-5535094.52834870573133,-2479051.00529721193016,4256929.67973302584141,6190835.12564901821315,4969260.71104589104652,1737055039.128059,Image_000057.jpg,0.105000,0.105000,0.044200,115.54859999999999,0.30810000000000,65.62770000000000,-0.43127030639199,-0.37442616744383,0.82085989544982,0.90220674299679,-0.17355316488507,0.39484464267544,-0.00537733351015,0.91087010275434,0.41265813961755
28.70141995900000,-81.34763275400000,-3.10000000000,842278.33417008002289,-5535085.28367071412504,3044914.58818106492981,0.57322840555542,0.00000078839617,0.74163995867111,-3744191.73980972776189,-5535094.52834870573133,-2479051.00529721193016,4256929.67973302584141,6190835.12564901821315,4969260.71104589104652,1737055039.661423,Image_000058.jpg,0.106000,0.106000,0.044700,128.59020000000001,-0.97880000000000,66.58860000000000,-0.62365490021337,-0.30078636985036,0.72151377336271,0.78151311907109,-0.26008617145523,0.56709119913603,0.01708245180391,0.91754168468250,0.39727250938162
28.70142197700000,-81.34763059799999,-3.06690000000,842278.53066051984206,-5535085.17449149582535,3044914.80025400873274,0.57322843011328,0.00000079770709,0.74163998714373,-3744191.73980972776189,-5535094.52834870573133,-2479051.00529721193016,4256929.67973302584141,6190835.12564901821315,4969260.71104589104652,1737055040.594811,Image_000059.jpg,0.107800,0.107800,0.045500,134.24539999999999,-0.32910000000000,70.01070000000000,-0.69772143936677,-0.24111690186752,0.67457203668827,0.71634614626574,-0.24238304497678,0.65429248676567,0.00574384698456,0.93974097449328,0.34183901047164
28.70142244600000,-81.34762749700000,-2.98380000000,842278.83744412625674,-5535085.17628656700253,3044914.88575551845133,0.57322846845586,0.00000079755400,0.74163999862305,-3744191.73980972776189,-5535094.52834870573133,-2479051.00529721193016,4256929.67973302584141,6190835.12564901821315,4969260.71104589104652,1737055041.194846,Image_000060.jpg,0.109300,0.109300,0.046400,131.85339999999999,3.73130000000000,73.21410000000000,-0.66581259167423,-0.25668240596539,0.70057671616737,0.74327553338751,-0.14628480080601,0.65279570963713,-0.06507744797967,0.95536113565550,0.28818401455232
28.70142355600000,-81.34762494300000,-2.94330000000,842279.08063059544656,-5535085.11545258946717,3044915.01311242859811,0.57322849884991,0.00000080274199,0.74164001572181,-3744191.73980972776189,-5535094.52834870573133,-2479051.00529721193016,4256929.67973302584141,6190835.12564901821315,4969260.71104589104652,1737055041.728210,Image_000061.jpg,0.110600,0.110600,0.047100,131.72360000000000,3.98150000000000,72.45659999999999,-0.66393157560099,-0.26903700418995,0.69772054097359,0.74456277846836,-0.15119886142371,0.65020394740701,-0.06943437073571,0.95118767584566,0.30070063764459
28.70142490600000,-81.34762281700000,-2.89040000000,842279.28218442411162,-5535085.05903426185250,3044915.16975561808795,0.57322852404060,0.00000080755341,0.74164003675251,-3744191.73980972776189,-5535094.52834870573133,-2479051.00529721193016,4256929.67973302584141,6190835.12564901821315,4969260.71104589104652,1737055042.228239,Image_000062.jpg,0.111700,0.111700,0.047700,128.93799999999999,1.05390000000000,74.76680000000000,-0.62837275304811,-0.21552605373146,0.74745983396413,0.77769491526422,-0.15132793120343,0.61015610790179,-0.01839298776477,0.96470118554951,0.26270386483730
28.70142491800000,-81.34762104700000,-2.81820000000,842279.46260717394762,-5535085.09499120712280,3044915.20559589192271,0.57322854659029,0.00000080448696,0.74164004156437,-3744191.73980972776189,-5535094.52834870573133,-2479051.00529721193016,4256929.67973302584141,6190835.12564901821315,4969260.71104589104652,1737055042.794939,Image_000063.jpg,0.112500,0.112500,0.048100,122.22560000000000,0.90630000000000,82.39780000000000,-0.53318759513133,-0.12027563549088,0.83740358245313,0.84584916072744,-0.05728350569747,0.53033743717721,-0.01581725939455,0.99108646014476,0.13227789997945
28.70142447100000,-81.34762047400000,-2.79850000000,842279.52414087543730,-5535085.12717192154378,3044915.17160229291767,0.57322855428092,0.00000080174255,0.74164003700044,-3744191.73980972776189,-5535094.52834870573133,-2479051.00529721193016,4256929.67973302584141,6190835.12564901821315,4969260.71104589104652,1737055042.961614,Image_000064.jpg,0.112800,0.112800,0.048300,118.62490000000000,0.26100000000000,90.10610000000000,-0.47906840211776,-0.00055685853961,0.87777739547160,0.87776575200484,0.00488566018830,0.47906514685574,-0.00455529359330,0.99998791004346,-0.00185177406492
28.70142308100000,-81.34761840300000,-2.69170000000,842279.74943372944836,-5535085.26248099748045,3044915.08776573278010,0.57322858243858,0.00000079020325,0.74164002574466,-3744191.73980972776189,-5535094.52834870573133,-2479051.00529721193016,4256929.67973302584141,6190835.12564901821315,4969260.71104589104652,1737055043.861667,Image_000065.jpg,0.113900,0.113900,0.048900,116.32800000000000,-1.03630000000000,113.92860000000000,-0.44343670231025,0.37085698033052,0.81598345031277,0.89612320173015,0.16506981377758,0.41196500324705,0.01808586091734,0.91390210456020,-0.40553155847026
28.70142278300000,-81.34761743800000,-2.63260000000,842279.85284273338038,-5535085.31522445846349,3044915.08717860700563,0.57322859536289,0.00000078570523,0.74164002566583,-3744191.73980972776189,-5535094.52834870573133,-2479051.00529721193016,4256929.67973302584141,6190835.12564901821315,4969260.71104589104652,1737055044.628378,Image_000066.jpg,0.114400,0.114400,0.049100,111.20070000000000,-1.80450000000000,128.33969999999999,-0.36145662175399,0.58727069664198,0.72419765220265,0.93185703683137,0.20130408894966,0.30185944855181,0.03148926004285,0.78395777477986,-0.62001502712770
28.70142200100000,-81.34761706400000,-2.61180000000,842279.89797953900415,-5535085.36891222093254,3044915.02114675380290,0.57322860100420,0.00000078112668,0.74164001680049,-3744191.73980972776189,-5535094.52834870573133,-2479051.00529721193016,4256929.67973302584141,6190835.12564901821315,4969260.71104589104652,1737055045.061736,Image_000067.jpg,0.114700,0.114700,0.049300,107.71540000000000,0.53120000000000,134.16659999999999,-0.30427602948155,0.66168352416024,0.68526710977386,0.95253878944662,0.21834747013850,0.21211845012558,-0.00927105616974,0.71728606297558,-0.69671712436146
28.70142195700000,-81.34761812700000,-2.54500000000,842279.80445487191901,-5535085.44477994274348,3044915.04894974455237,0.57322858931526,0.00000077465660,0.74164002053328,-3744191.73980972776189,-5535094.52834870573133,-2479051.00529721193016,4256929.67973302584141,6190835.12564901821315,4969260.71104589104652,1737055046.328476,Image_000068.jpg,0.115000,0.115000,0.049500,115.03720000000000,2.95440000000000,141.82509999999999,-0.42264410814021,0.69877626693935,0.57713402829557,0.90482897093688,0.36155680417168,0.22485820134136,-0.05154116032526,0.61724258287926,-0.78508286357101
28.70142634400000,-81.34761880700000,-2.55750000000,842279.70198579994030,-5535085.21309199742973,3044915.46942228917032,0.57322857650842,0.00000079441520,0.74164007698534,-3744191.73980972776189,-5535094.52834870573133,-2479051.00529721193016,4256929.67973302584141,6190835.12564901821315,4969260.71104589104652,1737055047.761894,Image_000069.jpg,0.117300,0.117300,0.050300,124.71990000000000,3.40040000000000,140.61949999999999,-0.56856226827774,0.61388890867261,0.54761058691339,0.82049916177904,0.47117684043857,0.32368736545349,-0.05931334260321,0.63335045025885,-0.77158870815102
28.70142816900000,-81.34762010900000,-2.55050000000,842279.56251590070315,-5535085.14227026049048,3044915.65019863331690,0.57322855907713,0.00000080045495,0.74164010125612,-3744191.73980972776189,-5535094.52834870573133,-2479051.00529721193016,4256929.67973302584141,6190835.12564901821315,4969260.71104589104652,1737055048.128581,Image_000070.jpg,0.120700,0.120700,0.050700,137.29480000000001,6.00200000000000,141.05910000000000,-0.73082476071159,0.47922640469864,0.48604240779017,0.67450849573508,0.61613775161437,0.40670942971216,-0.10456317856708,0.62507305499054,-0.77353100623875
28.70142967700000,-81.34762263700000,-2.54760000000,842279.30660500074737,-5535085.10259667783976,3044915.79818929126486,0.57322852709275,0.00000080383836,0.74164012112514,-3744191.73980972776189,-5535094.52834870573133,-2479051.00529721193016,4256929.67973302584141,6190835.12564901821315,4969260.71104589104652,1737055048.695280,Image_000071.jpg,0.124100,0.124100,0.051100,146.64160000000001,9.56580000000000,140.65110000000001,-0.82363354872725,0.33721167537890,0.45597813916800,0.54222866704607,0.70383377294274,0.45891839437817,-0.16618017343957,0.62522500434111,-0.76254694537599
28.70143239700000,-81.34762627000001,-2.56380000000,842278.93171991687268,-5535084.99882885161787,3044916.05483001004905,0.57322848023868,0.00000081268779,0.74164015558137,-3744191.73980972776189,-5535094.52834870573133,-2479051.00529721193016,4256929.67973302584141,6190835.12564901821315,4969260.71104589104652,1737055049.561998,Image_000072.jpg,0.129700,0.129700,0.051700,152.03950000000000,8.15660000000000,140.89800000000000,-0.87433585555562,0.28481065265170,0.39296272574627,0.46411971996241,0.72739539695868,0.50545902111381,-0.14187916419206,0.62432269590288,-0.76817411707811
28.70143419100000,-81.34763104600000,-2.56840000000,842278.45536021946464,-5535084.97064900118858,3044916.22702187951654,0.57322842070206,0.00000081509100,0.74164017869961,-3744191.73980972776189,-5535094.52834870573133,-2479051.00529721193016,4256929.67973302584141,6190835.12564901821315,4969260.71104589104652,1737055051.395438,Image_000073.jpg,0.134200,0.134200,0.052400,148.15479999999999,8.52990000000000,141.11609999999999,-0.84008031202139,0.33161928209630,0.42929444568499,0.52178981568264,0.71037683716371,0.47233477266782,-0.14832551231643,0.62080061288889,-0.76980915909909
28.70143729900000,-81.34763027000000,-2.63110000000,842278.49716587830335,-5535084.74132725223899,3044916.49905000161380,0.57322842592704,0.00000083464781,0.74164021522173,-3744191.73980972776189,-5535094.52834870573133,-2479051.00529721193016,4256929.67973302584141,6190835.12564901821315,4969260.71104589104652,1737055052.228820,Image_000074.jpg,0.139800,0.139800,0.052800,148.96940000000001,7.63790000000000,125.63870000000000,-0.84928962647209,0.20780470678042,0.48530849385397,0.51092222750974,0.55497020244894,0.65648042760639,-0.13291203031850,0.80549691385733,-0.57750247961626
28.70143850100000,-81.34762835900000,-2.74930000000,842278.65655705239624,-5535084.54748766217381,3044916.55913558788598,0.57322844584814,0.00000085117866,0.74164022328874,-3744191.73980972776189,-5535094.52834870573133,-2479051.00529721193016,4256929.67973302584141,6190835.12564901821315,4969260.71104589104652,1737055052.562173,Image_000075.jpg,0.142700,0.142700,0.053100,146.73240000000001,3.35740000000000,112.83820000000000,-0.83468261961162,0.16778103818918,0.52455166355893,0.54760858666190,0.35412935229662,0.75810107350942,-0.05856415569649,0.92002278507988,-0.38746395264775
28.70143950900000,-81.34762719400000,-2.85350000000,842278.74728133494500,-5535084.38696311973035,3044916.60708519117907,0.57322845718709,0.00000086486836,0.74164022972638,-3744191.73980972776189,-5535094.52834870573133,-2479051.00529721193016,4256929.67973302584141,6190835.12564901821315,4969260.71104589104652,1737055052.862191,Image_000076.jpg,0.144700,0.144700,0.053300,152.45429999999999,2.77970000000000,102.10480000000000,-0.88559901418240,0.05493477475467,0.46119036915553,0.46191182593354,0.20785786159687,0.86222536174432,-0.04849588788655,0.97661521588343,-0.20945373943443
28.70144118900000,-81.34762670200000,-3.01280000000,842278.76033852796536,-5535084.15319117531180,3044916.69390071555972,0.57322845881901,0.00000088480469,0.74164024138211,-3744191.73980972776189,-5535094.52834870573133,-2479051.00529721193016,4256929.67973302584141,6190835.12564901821315,4969260.71104589104652,1737055053.428891,Image_000077.jpg,0.148100,0.148100,0.053600,162.06680000000000,0.94040000000000,87.46400000000000,-0.95128799887429,-0.02922370602751,0.30691549032881,0.30786649430213,-0.03704886389020,0.95070794851551,-0.01641233937845,0.99888605791174,0.04424113951588
28.70144148100000,-81.34762688200000,-3.17750000000,842278.71887839480769,-5535083.99765227921307,3044916.64319060510024,0.57322845363722,0.00000089806921,0.74164023457385,-3744191.73980972776189,-5535094.52834870573133,-2479051.00529721193016,4256929.67973302584141,6190835.12564901821315,4969260.71104589104652,1737055054.095597,Image_000078.jpg,0.149100,0.149100,0.053700,161.99270000000001,3.55860000000000,69.50149999999999,-0.94918342210638,-0.16354627621747,0.26889300238908,0.30854209665979,-0.31505684989641,0.89751933456730,-0.06206936270977,0.93487528412551,0.34950764990777
28.70144040900000,-81.34762774799999,-3.24270000000,842278.63519839628134,-5535084.01025356072932,3044916.50766575336456,0.57322844317869,0.00000089699456,0.74164021637847,-3744191.73980972776189,-5535094.52834870573133,-2479051.00529721193016,4256929.67973302584141,6190835.12564901821315,4969260.71104589104652,1737055054.895643,Image_000079.jpg,0.147800,0.147800,0.053900,158.44880000000001,-2.11010000000000,56.41470000000000,-0.92945901153386,-0.17467130342178,0.32495519943438,0.36708342811802,-0.52577229065383,0.76734168085784,0.03681986800119,0.83249830879201,0.55280273441691
28.70144275300000,-81.34762603500000,-3.28400000000,842278.77646471688058,-5535083.82591631449759,3044916.71569998608902,0.57322846083450,0.00000091271504,0.74164024430885,-3744191.73980972776189,-5535094.52834870573133,-2479051.00529721193016,4256929.67973302584141,6190835.12564901821315,4969260.71104589104652,1737055056.062378,Image_000080.jpg,0.152200,0.152200,0.054100,163.88690000000000,1.02800000000000,58.11700000000000,-0.96056109417699,-0.16122562259460,0.22655834341840,0.27748964679735,-0.50320897350637,0.81840101716881,-0.01794102209421,0.84899177122140,0.52810140325942
28.70144154000000,-81.34762541400001,-3.29210000000,842278.84510067745578,-5535083.87359171360731,3044916.59389005787671,0.57322846941279,0.00000090864923,0.74164022795482,-3744191.73980972776189,-5535094.52834870573133,-2479051.00529721193016,4256929.67973302584141,6190835.12564901821315,4969260.71104589104652,1737055056.462402,Image_000081.jpg,0.150700,0.150700,0.054200,167.90510000000000,2.46540000000000,53.87440000000000,-0.97689681887453,-0.15750478804968,0.14444669263863,0.20933758135971,-0.56919003520363,0.79511035765820,-0.04301607029103,0.80697890032287,0.58901160610840
28.70143992400000,-81.34762582700000,-3.23860000000,842278.82520198903512,-5535084.01108997128904,3044916.46248622657731,0.57322846692581,0.00000089692323,0.74164021031273,-3744191.73980972776189,-5535094.52834870573133,-2479051.00529721193016,4256929.67973302584141,6190835.12564901821315,4969260.71104589104652,1737055056.895760,Image_000082.jpg,0.148700,0.148700,0.054300,167.41929999999999,1.17280000000000,56.65880000000000,-0.97578573035294,-0.13640450570177,0.17098543582373,0.21776886353676,-0.53270290315238,0.81780458487767,-0.02046779210080,0.83523734818151,0.54950854560164
28.70143677700000,-81.34762487499999,-3.21930000000,842278.94491599069443,-5535084.17942699138075,3044916.16582416370511,0.57322848188796,0.00000088256727,0.74164017048329,-3744191.73980972776189,-5535094.52834870573133,-2479051.00529721193016,4256929.67973302584141,6190835.12564901821315,4969260.71104589104652,1737055057.695808,Image_000083.jpg,0.144800,0.144800,0.054500,167.96559999999999,-1.82090000000000,62.67440000000000,-0.97752872950891,-0.06810151590214,0.19949878825827,0.20839364209644,-0.45484373846856,0.86584598140184,0.03177535080010,0.88796360122911,0.45881474472139
28.70143265800000,-81.34762127600000,-3.20720000000,842279.32717760128435,-5535084.35375502798706,3044915.77121282136068,0.57322852966396,0.00000086770039,0.74164011750332,-3744191.73980972776189,-5535094.52834870573133,-2479051.00529721193016,4256929.67973302584141,6190835.12564901821315,4969260.71104589104652,1737055058.629195,Image_000084.jpg,0.140100,0.140100,0.054700,175.06559999999999,1.40520000000000,63.95330000000000,-0.99599421570339,-0.05972016036433,0.06655091833669,0.08598923923750,-0.43558108035968,0.89603290852962,-0.02452290808108,0.89816625681371,0.43897152766494
28.70143101200000,-81.34762040699999,-3.14460000000,842279.43256811331958,-5535084.48187685199082,3044915.64126279624179,0.57322854283593,0.00000085677402,0.74164010005641,-3744191.73980972776189,-5535094.52834870573133,-2479051.00529721193016,4256929.67973302584141,6190835.12564901821315,4969260.71104589104652,1737055058.962548,Image_000085.jpg,0.138300,0.138300,0.054800,170.40369999999999,4.70060000000000,66.59150000000000,-0.98269039888717,-0.14038111234624,0.12088309737677,0.16614436579309,-0.37918784389063,0.91028162057727,-0.08194894538786,0.91460905437351,0.39594778444615
28.70143006300000,-81.34761994700000,-3.14530000000,842279.48451315413695,-5535084.52444419171661,3044915.54867102950811,0.57322854932815,0.00000085314383,0.74164008762516,-3744191.73980972776189,-5535094.52834870573133,-2479051.00529721193016,4256929.67973302584141,6190835.12564901821315,4969260.71104589104652,1737055059.162559,Image_000086.jpg,0.137200,0.137200,0.054800,169.33690000000001,4.01570000000000,67.57410000000000,-0.98031945963121,-0.13420411601640,0.14478609157176,0.18457947159374,-0.36292287035536,0.91335502891220,-0.07002982032354,0.92210424867109,0.38055167697459
28.70142870900000,-81.34761878000000,-3.15980000000,842279.60618020989932,-5535084.56596273928881,3044915.41008041612804,0.57322856453440,0.00000084960308,0.74164006901818,-3744191.73980972776189,-5535094.52834870573133,-2479051.00529721193016,4256929.67973302584141,6190835.12564901821315,4969260.71104589104652,1737055059.429241,Image_000087.jpg,0.135800,0.135800,0.054900,168.16739999999999,3.92020000000000,67.52070000000001,-0.97646083220052,-0.14023191469588,0.16388792902163,0.20457319683540,-0.36127135394131,0.90974326925675,-0.06836702651728,0.92185574734995,0.38145501800743
28.70142477100000,-81.34761631400001,-3.16480000000,842279.87528212717734,-5535084.73259385302663,3044915.02485248353332,0.57322859816743,0.00000083539260,0.74164001729801,-3744191.73980972776189,-5535094.52834870573133,-2479051.00529721193016,4256929.67973302584141,6190835.12564901821315,4969260.71104589104652,1737055060.129282,Image_000088.jpg,0.132000,0.132000,0.055000,159.73759999999999,2.24610000000000,67.05750000000000,-0.93739565804584,-0.16885616197855,0.30459313327564,0.34605401755454,-0.35318523569192,0.86919894513489,-0.03919180030518,0.92018899463703,0.38950765966502
28.70142204600000,-81.34761506600000,-3.14070000000,842280.02084568864666,-5535084.87853600643575,3044914.77151963952929,0.57322861636032,0.00000082294649,0.74163998328590,-3744191.73980972776189,-5535094.52834870573133,-2479051.00529721193016,4256929.67973302584141,6190835.12564901821315,4969260.71104589104652,1737055060.629311,Image_000089.jpg,0.129500,0.129500,0.055100,154.43160000000000,3.08470000000000,64.71700000000000,-0.90076366274540,-0.22821934427344,0.36951421458030,0.43096296200484,-0.36426501907020,0.82557974857781,-0.05381216644506,0.90289917863579,0.42647077738257
28.70142101100000,-81.34761383100000,-3.14110000000,842280.14838817692362,-5535084.91449587605894,3044914.67071157880127,0.57322863230090,0.00000081987980,0.74163996975155,-3744191.73980972776189,-5535094.52834870573133,-2479051.00529721193016,4256929.67973302584141,6190835.12564901821315,4969260.71104589104652,1737055060.895993,Image_000090.jpg,0.128700,0.128700,0.055100,152.49500000000000,3.64050000000000,66.04760000000000,-0.88518071244271,-0.23896002251285,0.39919069873944,0.46089409678917,-0.33329133646574,0.82249225928381,-0.06349596730754,0.91203892059360,0.40515832640850
28.70142028600000,-81.34761249100001,-3.12930000000,842280.28520183893852,-5535084.94317916780710,3044914.60589869134128,0.57322864940021,0.00000081743366,0.74163996104986,-3744191.73980972776189,-5535094.52834870573133,-2479051.00529721193016,4256929.67973302584141,6190835.12564901821315,4969260.71104589104652,1737055061.129340,Image_000091.jpg,0.128100,0.128100,0.055100,151.00710000000001,5.53410000000000,65.07530000000000,-0.87060287624538,-0.28076220363450,0.40400893168786,0.48244203232920,-0.32622339984740,0.81291326648916,-0.09643815279928,0.90263551802613,0.41946251832835
28.70141884700000,-81.34761027300000,-3.14000000000,842280.50958329450805,-5535084.97701527271420,3044914.46086985245347,0.57322867744396,0.00000081454808,0.74163994157849,-3744191.73980972776189,-5535094.52834870573133,-2479051.00529721193016,4256929.67973302584141,6190835.12564901821315,4969260.71104589104652,1737055061.562699,Image_000092.jpg,0.127100,0.127100,0.055100,144.93639999999999,2.18230000000000,64.67440000000001,-0.81792120682619,-0.27391565469461,0.50593983193381,0.57406870727923,-0.33035592772246,0.74920630025473,-0.03807911168536,0.90323594654545,0.42745152487902
28.70141792000000,-81.34760907400000,-3.13100000000,842280.63402358652093,-5535085.01597258914262,3044914.37507515074685,0.57322869299682,0.00000081122575,0.74163993005981,-3744191.73980972776189,-5535094.52834870573133,-2479051.00529721193016,4256929.67973302584141,6190835.12564901821315,4969260.71104589104652,1737055061.796046,Image_000093.jpg,0.126400,0.126400,0.055100,139.99359999999999,2.60770000000000,64.78540000000000,-0.76517944635601,-0.30539941607584,0.56677298059704,0.64220745561821,-0.29984981277292,0.70544997960765,-0.04549723972612,0.90378165861041,0.42556869567288
28.70141610300000,-81.34760467600000,-3.13640000000,842281.07273106428329,-5535085.04224775731564,3044914.19584490684792,0.57322874782756,0.00000080898498,0.74163990599661,-3744191.73980972776189,-5535094.52834870573133,-2479051.00529721193016,4256929.67973302584141,6190835.12564901821315,4969260.71104589104652,1737055062.562757,Image_000094.jpg,0.125300,0.125300,0.055100,130.70040000000000,2.60630000000000,65.16719999999999,-0.65142914476603,-0.34530424591997,0.67557756556819,0.75734555590184,-0.24257837335592,0.60628660032671,-0.04547283040592,0.90659842848399,0.41953725837551
28.70141429300000,-81.34759948900000,-3.05040000000,842281.59966495784465,-5535085.13581346068531,3044914.06118956208229,0.57322881368507,0.00000080100559,0.74163988791797,-3744191.73980972776189,-5535094.52834870573133,-2479051.00529721193016,4256929.67973302584141,6190835.12564901821315,4969260.71104589104652,1737055063.462808,Image_000095.jpg,0.124200,0.124200,0.055000,115.12960000000000,3.32150000000000,63.05320000000000,-0.42395381973448,-0.43220416018247,0.79590371443631,0.90382867401894,-0.14568386318868,0.40233063520889,-0.05793864646084,0.88993020845872,0.45240174327571
28.70141345500000,-81.34759691600000,-3.04910000000,842281.85511245811358,-5535085.14321186859161,3044913.98034896841273,0.57322884561153,0.00000080037465,0.74163987706442,-3744191.73980972776189,-5535094.52834870573133,-2479051.00529721193016,4256929.67973302584141,6190835.12564901821315,4969260.71104589104652,1737055063.896166,Image_000096.jpg,0.123800,0.123800,0.054900,111.72910000000000,0.88350000000000,64.65370000000000,-0.37017459380136,-0.40282935920765,0.83707782043508,0.92883422258466,-0.14554135860678,0.34071204834941,-0.01541937286520,0.90362947068765,0.42803740799748
28.70141337000000,-81.34759553200000,-3.05360000000,842281.98890123341698,-5535085.12343678250909,3044913.96992471767589,0.57322886233278,0.00000080206109,0.74163987566487,-3744191.73980972776189,-5535094.52834870573133,-2479051.00529721193016,4256929.67973302584141,6190835.12564901821315,4969260.71104589104652,1737055064.096177,Image_000097.jpg,0.123700,0.123700,0.054900,109.01530000000000,1.22050000000000,65.67810000000000,-0.32574670966830,-0.39571207225823,0.85866235332019,0.94521711024140,-0.11584285664480,0.30519673502720,-0.02130013256210,0.91103918051501,0.41176925081819
28.70141330100000,-81.34759330400000,-3.04460000000,842282.20587830315344,-5535085.10211901552975,3044913.96753919310868,0.57322888945112,0.00000080387909,0.74163987534460,-3744191.73980972776189,-5535094.52834870573133,-2479051.00529721193016,4256929.67973302584141,6190835.12564901821315,4969260.71104589104652,1737055064.429530,Image_000098.jpg,0.123600,0.123600,0.054800,107.51670000000000,2.44430000000000,63.52180000000000,-0.30070991771828,-0.43667245732651,0.84787423029498,0.95276160775806,-0.09779145585407,0.28754503985326,-0.04264814378307,0.89428966010704,0.44545161314949
28.70141235100000,-81.34758941600001,-3.04000000000,842282.58969425631221,-5535085.09894116409123,3044913.87739549484104,0.57322893742139,0.00000080415010,0.74163986324203,-3744191.73980972776189,-5535094.52834870573133,-2479051.00529721193016,4256929.67973302584141,6190835.12564901821315,4969260.71104589104652,1737055064.962894,Image_000099.jpg,0.123100,0.123100,0.054600,102.78940000000000,1.87950000000000,63.71430000000000,-0.22124899363058,-0.43837012616983,0.87113748358070,0.97466568705979,-0.06935563494194,0.21264193934893,-0.03279758048592,0.89611462904232,0.44260918464331
28.70141205400000,-81.34758616500000,-3.04300000000,842282.90574090520386,-5535085.06417623348534,3044913.84708235040307,0.57322897692168,0.00000080711489,0.74163985917223,-3744191.73980972776189,-5535094.52834870573133,-2479051.00529721193016,4256929.67973302584141,6190835.12564901821315,4969260.71104589104652,1737055065.429587,Image_000100.jpg,0.122800,0.122800,0.054500,101.27249999999999,-0.14800000000000,65.01309999999999,-0.19547480830350,-0.41380446057006,0.88913186183548,0.98070532118144,-0.08486714312120,0.17610974142522,0.00258308442041,0.90640136607949,0.42240962494255
28.70141305500000,-81.34757976500001,-3.06640000000,842283.51291275036056,-5535084.89712812844664,3044913.93315532850102,0.57322905280752,0.00000082136094,0.74163987072827,-3744191.73980972776189,-5535094.52834870573133,-2479051.00529721193016,4256929.67973302584141,6190835.12564901821315,4969260.71104589104652,1737055066.262969,Image_000101.jpg,0.122700,0.122700,0.054000,95.21450000000000,-0.65000000000000,65.19860000000000,-0.09087876008688,-0.41680230373439,0.90444286196905,0.99579734666569,-0.04837920656519,0.07776308086555,0.01134439679537,0.90770881452910,0.41944727044949
